%time,field.header.seq,field.header.stamp,field.header.frame_id,field.orientation.x,field.orientation.y,field.orientation.z,field.orientation.w,field.orientation_covariance0,field.orientation_covariance1,field.orientation_covariance2,field.orientation_covariance3,field.orientation_covariance4,field.orientation_covariance5,field.orientation_covariance6,field.orientation_covariance7,field.orientation_covariance8,field.angular_velocity.x,field.angular_velocity.y,field.angular_velocity.z,field.angular_velocity_covariance0,field.angular_velocity_covariance1,field.angular_velocity_covariance2,field.angular_velocity_covariance3,field.angular_velocity_covariance4,field.angular_velocity_covariance5,field.angular_velocity_covariance6,field.angular_velocity_covariance7,field.angular_velocity_covariance8,field.linear_acceleration.x,field.linear_acceleration.y,field.linear_acceleration.z,field.linear_acceleration_covariance0,field.linear_acceleration_covariance1,field.linear_acceleration_covariance2,field.linear_acceleration_covariance3,field.linear_acceleration_covariance4,field.linear_acceleration_covariance5,field.linear_acceleration_covariance6,field.linear_acceleration_covariance7,field.linear_acceleration_covariance8
1481561747650559412,402,1481561747549759445,,14.2021484375,-12.443939209,-157.933242798,0.00166700000409,1.0,0.0,0.0,0.0,1.0,0.0,0.0,0.0,1.0,-2.25609779358,-11.5243911743,0.853658556938,1.0,0.0,0.0,0.0,1.0,0.0,0.0,0.0,1.0,-0.531512805087,-0.895431420898,9.68215151367,1.0,0.0,0.0,0.0,1.0,0.0,0.0,0.0,1.0
1481561747650595871,403,1481561747562434284,,13.9406471252,-12.4078512192,-157.887878418,0.00314699998125,1.0,0.0,0.0,0.0,1.0,0.0,0.0,0.0,1.0,-2.19512200356,-8.59756088257,-0.487804889679,1.0,0.0,0.0,0.0,1.0,0.0,0.0,0.0,1.0,-0.15801730957,-1.23540805664,9.95030209961,1.0,0.0,0.0,0.0,1.0,0.0,0.0,0.0,1.0
1481561747650791182,404,1481561747575612246,,13.7355537415,-12.3598556519,-157.820617676,0.00480500003323,1.0,0.0,0.0,0.0,1.0,0.0,0.0,0.0,1.0,-1.8292683363,-6.34146356583,1.58536589146,1.0,0.0,0.0,0.0,1.0,0.0,0.0,0.0,1.0,-0.646434448242,-1.02950671387,10.0556469727,1.0,0.0,0.0,0.0,1.0,0.0,0.0,0.0,1.0
1481561747650899671,405,1481561747588282815,,13.6286706924,-12.3016557693,-157.757995605,0.00275300000794,1.0,0.0,0.0,0.0,1.0,0.0,0.0,0.0,1.0,-0.487804889679,-7.68292665482,0.0609756112099,1.0,0.0,0.0,0.0,1.0,0.0,0.0,0.0,1.0,-3.18907661133,-0.440533105469,10.1035310059,1.0,0.0,0.0,0.0,1.0,0.0,0.0,0.0,1.0
1481561747650972067,406,1481561747599418494,,13.5475463867,-12.2846126556,-157.7472229,0.00264799990691,1.0,0.0,0.0,0.0,1.0,0.0,0.0,0.0,1.0,-2.56097555161,-16.341463089,-5.48780488968,1.0,0.0,0.0,0.0,1.0,0.0,0.0,0.0,1.0,-4.28083286062,-0.665588061523,10.3333743652,1.0,0.0,0.0,0.0,1.0,0.0,0.0,0.0,1.0
1481561747651005973,407,1481561747617603257,,13.2348089218,-12.2125072479,-157.707870483,0.00802300032228,1.0,0.0,0.0,0.0,1.0,0.0,0.0,0.0,1.0,-0.243902444839,-35.6707344055,-7.62195110321,1.0,0.0,0.0,0.0,1.0,0.0,0.0,0.0,1.0,-4.93684382324,-0.866701000977,10.1945106689,1.0,0.0,0.0,0.0,1.0,0.0,0.0,0.0,1.0
1481561747651109202,408,1481561747635100367,,12.6550951004,-12.098695755,-157.57321167,0.00547500001267,1.0,0.0,0.0,0.0,1.0,0.0,0.0,0.0,1.0,1.70731711388,-27.8048782349,5.85365867615,1.0,0.0,0.0,0.0,1.0,0.0,0.0,0.0,1.0,0.732625708008,-0.948103857422,10.2232410889,1.0,0.0,0.0,0.0,1.0,0.0,0.0,0.0,1.0
1481561747651143889,409,1481561747642869863,,12.2401189804,-11.9713973999,-157.380691528,0.00109000003431,1.0,0.0,0.0,0.0,1.0,0.0,0.0,0.0,1.0,-0.18292683363,-19.6951236725,10.4878053665,1.0,0.0,0.0,0.0,1.0,0.0,0.0,0.0,1.0,1.67115275879,-0.445321508789,10.553640918,1.0,0.0,0.0,0.0,1.0,0.0,0.0,0.0,1.0
1481561747658716043,410,1481561747656493813,,11.8333864212,-11.8943843842,-157.079101562,0.00396100012586,1.0,0.0,0.0,0.0,1.0,0.0,0.0,0.0,1.0,0.487804889679,11.7073173523,22.3780498505,1.0,0.0,0.0,0.0,1.0,0.0,0.0,0.0,1.0,5.41089575195,-0.656011254883,10.2711251221,1.0,0.0,0.0,0.0,1.0,0.0,0.0,0.0,1.0
1481561747670022138,411,1481561747667462775,,11.8222913742,-11.8390703201,-156.845413208,0.00496000004932,1.0,0.0,0.0,0.0,1.0,0.0,0.0,0.0,1.0,-5.0,26.7682933807,21.158536911,1.0,0.0,0.0,0.0,1.0,0.0,0.0,0.0,1.0,1.5801730957,-0.91458503418,9.193734375,1.0,0.0,0.0,0.0,1.0,0.0,0.0,0.0,1.0
1481561747681067297,412,1481561747678976734,,12.0113430023,-11.7738542557,-156.735992432,0.00140199996531,1.0,0.0,0.0,0.0,1.0,0.0,0.0,0.0,1.0,-5.36585378647,16.2804889679,2.68292689323,1.0,0.0,0.0,0.0,1.0,0.0,0.0,0.0,1.0,-2.17872351074,0.339976635742,9.07402429199,1.0,0.0,0.0,0.0,1.0,0.0,0.0,0.0,1.0
1481561747691252148,413,1481561747689701946,,12.1317596436,-11.7360486984,-156.788803101,0.00103699997999,1.0,0.0,0.0,0.0,1.0,0.0,0.0,0.0,1.0,-4.2682929039,2.68292689323,-11.6463422775,1.0,0.0,0.0,0.0,1.0,0.0,0.0,0.0,1.0,-4.98472785645,-0.392649072266,8.94952580566,1.0,0.0,0.0,0.0,1.0,0.0,0.0,0.0,1.0
1481561747702651264,414,1481561747700524815,,12.1594142914,-11.7163600922,-156.909622192,0.00117099995259,1.0,0.0,0.0,0.0,1.0,0.0,0.0,0.0,1.0,-2.01219511032,-14.4512205124,-16.158536911,1.0,0.0,0.0,0.0,1.0,0.0,0.0,0.0,1.0,-3.05500131836,-0.258573779297,8.8633345459,1.0,0.0,0.0,0.0,1.0,0.0,0.0,0.0,1.0
1481561747717978435,415,1481561747711330392,,11.9952964783,-11.7092761993,-156.992401123,0.00118100002874,1.0,0.0,0.0,0.0,1.0,0.0,0.0,0.0,1.0,0.426829278469,-9.26829242706,-6.70731735229,1.0,0.0,0.0,0.0,1.0,0.0,0.0,0.0,1.0,0.727837304687,-1.69030637207,9.94072529297,1.0,0.0,0.0,0.0,1.0,0.0,0.0,0.0,1.0
1481561747723599087,416,1481561747721894407,,11.8785400391,-11.6538743973,-156.96270752,0.00111599999946,1.0,0.0,0.0,0.0,1.0,0.0,0.0,0.0,1.0,1.34146344662,4.69512224197,5.12195110321,1.0,0.0,0.0,0.0,1.0,0.0,0.0,0.0,1.0,0.512359155273,-1.78128603516,11.0276928467,1.0,0.0,0.0,0.0,1.0,0.0,0.0,0.0,1.0
1481561747733910760,417,1481561747732208424,,11.8311576843,-11.5871334076,-156.837432861,0.00110700004734,1.0,0.0,0.0,0.0,1.0,0.0,0.0,0.0,1.0,-4.02439022064,18.7195110321,15.0609760284,1.0,0.0,0.0,0.0,1.0,0.0,0.0,0.0,1.0,2.10210891149,-1.09654436035,10.6446205811,1.0,0.0,0.0,0.0,1.0,0.0,0.0,0.0,1.0
1481561747744866076,418,1481561747743087334,,11.8895769119,-11.5467100143,-156.687423706,0.00108199997339,1.0,0.0,0.0,0.0,1.0,0.0,0.0,0.0,1.0,-4.08536577225,33.3536605835,16.341463089,1.0,0.0,0.0,0.0,1.0,0.0,0.0,0.0,1.0,0.229843359375,-0.076614453125,10.0939541992,1.0,0.0,0.0,0.0,1.0,0.0,0.0,0.0,1.0
1481561747758789139,419,1481561747753784369,,12.1695957184,-11.501666069,-156.624786377,0.00116999994498,1.0,0.0,0.0,0.0,1.0,0.0,0.0,0.0,1.0,-6.28048801422,21.8292694092,2.19512200356,1.0,0.0,0.0,0.0,1.0,0.0,0.0,0.0,1.0,-2.93050283203,-0.363918652344,8.90164177246,1.0,0.0,0.0,0.0,1.0,0.0,0.0,0.0,1.0
1481561747765733066,420,1481561747764424270,,12.3209648132,-11.5080919266,-156.686477661,0.00101699994411,1.0,0.0,0.0,0.0,1.0,0.0,0.0,0.0,1.0,-3.65853667259,9.5731716156,-9.26829242706,1.0,0.0,0.0,0.0,1.0,0.0,0.0,0.0,1.0,-2.46602770996,-0.828393774414,8.92079538574,1.0,0.0,0.0,0.0,1.0,0.0,0.0,0.0,1.0
1481561747776552132,421,1481561747774974223,,12.4623279572,-11.5174388885,-156.813461304,0.00113200000487,1.0,0.0,0.0,0.0,1.0,0.0,0.0,0.0,1.0,-0.853658556938,-4.20731735229,-16.5243911743,1.0,0.0,0.0,0.0,1.0,0.0,0.0,0.0,1.0,-3.41413156738,-1.21146604004,9.52413478862,1.0,0.0,0.0,0.0,1.0,0.0,0.0,0.0,1.0
1481561747792407114,422,1481561747786107194,,12.4537382126,-11.5258636475,-156.937728882,0.00108499999624,1.0,0.0,0.0,0.0,1.0,0.0,0.0,0.0,1.0,0.0,-11.7073173523,-13.4756097794,1.0,0.0,0.0,0.0,1.0,0.0,0.0,0.0,1.0,-4.07014282227,-1.56580788574,10.4435076416,1.0,0.0,0.0,0.0,1.0,0.0,0.0,0.0,1.0
1481561747800976919,423,1481561747798773231,,12.2929754257,-11.4521780014,-156.937820435,0.00619800016284,1.0,0.0,0.0,0.0,1.0,0.0,0.0,0.0,1.0,-0.975609779358,-7.98780536652,-3.59756112099,1.0,0.0,0.0,0.0,1.0,0.0,0.0,0.0,1.0,-1.2737152832,-0.732625708008,10.9941740234,1.0,0.0,0.0,0.0,1.0,0.0,0.0,0.0,1.0
1481561747811338696,424,1481561747808984123,,12.2701730728,-11.4738969803,-156.899002075,0.00112100003753,1.0,0.0,0.0,0.0,1.0,0.0,0.0,0.0,1.0,-2.13414645195,-6.89024400711,2.86585378647,1.0,0.0,0.0,0.0,1.0,0.0,0.0,0.0,1.0,-2.18830031738,-1.34075292969,10.2088758789,1.0,0.0,0.0,0.0,1.0,0.0,0.0,0.0,1.0
1481561747822846666,425,1481561747820292823,,12.1683206558,-11.4483070374,-156.795120239,0.00111700000707,1.0,0.0,0.0,0.0,1.0,0.0,0.0,0.0,1.0,-3.10975623131,-5.12195110321,5.36585378647,1.0,0.0,0.0,0.0,1.0,0.0,0.0,0.0,1.0,-1.30723410645,-0.933738647461,9.96945571289,1.0,0.0,0.0,0.0,1.0,0.0,0.0,0.0,1.0
1481561747833522868,426,1481561747830860640,,12.0431365967,-11.4066209793,-156.688522339,0.00104400003329,1.0,0.0,0.0,0.0,1.0,0.0,0.0,0.0,1.0,-2.37804889679,2.31707310677,7.74390268326,1.0,0.0,0.0,0.0,1.0,0.0,0.0,0.0,1.0,-0.426167895508,-1.22104284668,10.1945106689,1.0,0.0,0.0,0.0,1.0,0.0,0.0,0.0,1.0
1481561747846520987,427,1481561747843636052,,11.9193248749,-11.3337688446,-156.570907593,0.00384799996391,1.0,0.0,0.0,0.0,1.0,0.0,0.0,0.0,1.0,0.0609756112099,10.3658542633,11.0975618362,1.0,0.0,0.0,0.0,1.0,0.0,0.0,0.0,1.0,2.08774370153,0.00957680664062,10.7451770508,1.0,0.0,0.0,0.0,1.0,0.0,0.0,0.0,1.0
1481561747855702405,428,1481561747853348301,,11.9162511826,-11.2653284073,-156.486740112,0.00303700007498,1.0,0.0,0.0,0.0,1.0,0.0,0.0,0.0,1.0,-4.02439022064,17.2560977936,6.95121955872,1.0,0.0,0.0,0.0,1.0,0.0,0.0,0.0,1.0,0.952892260742,-0.0191536132812,10.5296989014,1.0,0.0,0.0,0.0,1.0,0.0,0.0,0.0,1.0
1481561747866764647,429,1481561747863790910,,11.9487009048,-11.2031478882,-156.452468872,0.000968999986071,1.0,0.0,0.0,0.0,1.0,0.0,0.0,0.0,1.0,-4.2682929039,20.0,3.71951246262,1.0,0.0,0.0,0.0,1.0,0.0,0.0,0.0,1.0,1.48919343262,0.0239420166016,10.0029745361,1.0,0.0,0.0,0.0,1.0,0.0,0.0,0.0,1.0
1481561747880818907,430,1481561747877341163,,12.0231161118,-11.1685810089,-156.437759399,0.00374999991618,1.0,0.0,0.0,0.0,1.0,0.0,0.0,0.0,1.0,-3.04878044128,33.5975608826,4.69512224197,1.0,0.0,0.0,0.0,1.0,0.0,0.0,0.0,1.0,2.61446821289,-0.670376464844,9.86889924316,1.0,0.0,0.0,0.0,1.0,0.0,0.0,0.0,1.0
1481561747891930577,431,1481561747887461326,,12.2076473236,-11.1571044922,-156.436569214,0.0011569999624,1.0,0.0,0.0,0.0,1.0,0.0,0.0,0.0,1.0,-3.23170733452,44.4512176514,5.97560977936,1.0,0.0,0.0,0.0,1.0,0.0,0.0,0.0,1.0,2.07816689489,-0.598550451572,9.39005832661,1.0,0.0,0.0,0.0,1.0,0.0,0.0,0.0,1.0
1481561747900940016,432,1481561747898524037,,12.5046348572,-11.1645860672,-156.46572876,0.00116300000809,1.0,0.0,0.0,0.0,1.0,0.0,0.0,0.0,1.0,-6.0365858078,52.4390258789,5.12195110321,1.0,0.0,0.0,0.0,1.0,0.0,0.0,0.0,1.0,2.54264216309,-1.32159931641,10.7308118408,1.0,0.0,0.0,0.0,1.0,0.0,0.0,0.0,1.0
1481561747910754764,433,1481561747909116594,,13.0198020935,-11.199177742,-156.523620605,0.000989999971353,1.0,0.0,0.0,0.0,1.0,0.0,0.0,0.0,1.0,-7.98780536652,46.1585388184,-2.62195134163,1.0,0.0,0.0,0.0,1.0,0.0,0.0,0.0,1.0,-3.4428619873,-0.253785375977,9.27513723145,1.0,0.0,0.0,0.0,1.0,0.0,0.0,0.0,1.0
1481561747921968672,434,1481561747920039826,,13.5494718552,-11.2809925079,-156.65322876,0.0010379999876,1.0,0.0,0.0,0.0,1.0,0.0,0.0,0.0,1.0,-14.3902444839,37.2560958862,-8.78048801422,1.0,0.0,0.0,0.0,1.0,0.0,0.0,0.0,1.0,-5.92325490723,-0.134075302102,10.8888291504,1.0,0.0,0.0,0.0,1.0,0.0,0.0,0.0,1.0
1481561747932657739,435,1481561747930704258,,14.0258960724,-11.4293861389,-156.814575195,0.000995000009425,1.0,0.0,0.0,0.0,1.0,0.0,0.0,0.0,1.0,-13.1097564697,18.5365848541,-13.2926826477,1.0,0.0,0.0,0.0,1.0,0.0,0.0,0.0,1.0,-7.40765993652,-0.411802685547,9.53849999858,1.0,0.0,0.0,0.0,1.0,0.0,0.0,0.0,1.0
1481561747943995136,436,1481561747941783428,,14.3123216629,-11.5284156799,-156.917999268,0.00100399996154,1.0,0.0,0.0,0.0,1.0,0.0,0.0,0.0,1.0,-14.5731706619,4.69512224197,-11.6463422775,1.0,0.0,0.0,0.0,1.0,0.0,0.0,0.0,1.0,-7.82903942871,-1.72861359863,8.72925925293,1.0,0.0,0.0,0.0,1.0,0.0,0.0,0.0,1.0
1481561747956188988,437,1481561747954523006,,14.4571018219,-11.6222295761,-156.989273071,0.00099400000181,1.0,0.0,0.0,0.0,1.0,0.0,0.0,0.0,1.0,-4.20731735229,-3.96341490746,-5.12195110321,1.0,0.0,0.0,0.0,1.0,0.0,0.0,0.0,1.0,-5.21457121582,-1.39821376953,8.80587370605,1.0,0.0,0.0,0.0,1.0,0.0,0.0,0.0,1.0
1481561747965421499,438,1481561747963216249,,14.4624786377,-11.6451416016,-157.009536743,0.00105199997779,1.0,0.0,0.0,0.0,1.0,0.0,0.0,0.0,1.0,2.43902444839,-5.60975599289,-2.01219511032,1.0,0.0,0.0,0.0,1.0,0.0,0.0,0.0,1.0,-2.70065947266,-1.83395847168,8.5999729478,1.0,0.0,0.0,0.0,1.0,0.0,0.0,0.0,1.0
1481561747980503568,439,1481561747978396806,,14.4143304825,-11.5785989761,-157.00428772,0.00220900005661,1.0,0.0,0.0,0.0,1.0,0.0,0.0,0.0,1.0,9.39024448395,-10.0609760284,-1.2195122242,1.0,0.0,0.0,0.0,1.0,0.0,0.0,0.0,1.0,-0.46447512207,-0.991199487305,9.37569311665,1.0,0.0,0.0,0.0,1.0,0.0,0.0,0.0,1.0
1481561747988796395,440,1481561747986819998,,14.2335500717,-11.4578018188,-156.98324585,0.0010529999854,1.0,0.0,0.0,0.0,1.0,0.0,0.0,0.0,1.0,9.26829242706,-5.60975599289,-1.8292683363,1.0,0.0,0.0,0.0,1.0,0.0,0.0,0.0,1.0,-0.986411083984,-1.24019645996,10.3860468018,1.0,0.0,0.0,0.0,1.0,0.0,0.0,0.0,1.0
1481561748000563582,441,1481561747998677237,,14.0368204117,-11.3266649246,-156.934738159,0.0025420000311,1.0,0.0,0.0,0.0,1.0,0.0,0.0,0.0,1.0,6.15853643417,0.0,1.2804877758,1.0,0.0,0.0,0.0,1.0,0.0,0.0,0.0,1.0,0.354341845703,-0.943315454102,10.5680061279,1.0,0.0,0.0,0.0,1.0,0.0,0.0,0.0,1.0
1481561748012055458,442,1481561748009641875,,13.9148693085,-11.2639255524,-156.904571533,0.00118599995039,1.0,0.0,0.0,0.0,1.0,0.0,0.0,0.0,1.0,-0.853658556938,8.47560977936,2.5,1.0,0.0,0.0,0.0,1.0,0.0,0.0,0.0,1.0,0.239420166016,-0.967257470703,10.6925046143,1.0,0.0,0.0,0.0,1.0,0.0,0.0,0.0,1.0
1481561748021159428,443,1481561748019726622,,13.8865499496,-11.2907266617,-156.88168335,0.00165400002152,1.0,0.0,0.0,0.0,1.0,0.0,0.0,0.0,1.0,-7.07317113876,13.9634151459,3.10975623131,1.0,0.0,0.0,0.0,1.0,0.0,0.0,0.0,1.0,0.416591088867,-0.976834277344,10.8936175537,1.0,0.0,0.0,0.0,1.0,0.0,0.0,0.0,1.0
1481561748032611252,444,1481561748030268137,,13.9653348923,-11.3216304779,-156.850662231,0.00119099998847,1.0,0.0,0.0,0.0,1.0,0.0,0.0,0.0,1.0,-9.75609779358,19.0853652954,2.92682933807,1.0,0.0,0.0,0.0,1.0,0.0,0.0,0.0,1.0,-1.35032973633,-0.430956298828,10.433930835,1.0,0.0,0.0,0.0,1.0,0.0,0.0,0.0,1.0
1481561748042998237,445,1481561748040979236,,14.1313819885,-11.3817987442,-156.808013916,0.00147799996193,1.0,0.0,0.0,0.0,1.0,0.0,0.0,0.0,1.0,-12.4390249252,20.3658542633,6.28048801422,1.0,0.0,0.0,0.0,1.0,0.0,0.0,0.0,1.0,-1.34554133301,-0.670376464844,9.85932243652,1.0,0.0,0.0,0.0,1.0,0.0,0.0,0.0,1.0
1481561748054654435,446,1481561748052365539,,14.3784627914,-11.4067001343,-156.732955933,0.00123699998949,1.0,0.0,0.0,0.0,1.0,0.0,0.0,0.0,1.0,-11.1585359573,22.3780498505,7.74390268326,1.0,0.0,0.0,0.0,1.0,0.0,0.0,0.0,1.0,-2.6862942627,-0.105344873047,9.61032604839,1.0,0.0,0.0,0.0,1.0,0.0,0.0,0.0,1.0
1481561748065266107,447,1481561748063050023,,14.6637983322,-11.4364719391,-156.670410156,0.00107200001366,1.0,0.0,0.0,0.0,1.0,0.0,0.0,0.0,1.0,-10.4268293381,16.2195110321,4.93902444839,1.0,0.0,0.0,0.0,1.0,0.0,0.0,0.0,1.0,-3.73974299316,-0.450109912109,9.8545340332,1.0,0.0,0.0,0.0,1.0,0.0,0.0,0.0,1.0
1481561748078098081,448,1481561748074050703,,14.8048725128,-11.452963829,-156.613876343,0.00105399999302,1.0,0.0,0.0,0.0,1.0,0.0,0.0,0.0,1.0,-7.80487823486,16.9512195587,6.46341466904,1.0,0.0,0.0,0.0,1.0,0.0,0.0,0.0,1.0,-1.42215578613,-0.517147558594,10.3525279785,1.0,0.0,0.0,0.0,1.0,0.0,0.0,0.0,1.0
1481561748087646632,449,1481561748084232949,,14.9475107193,-11.4550571442,-156.55406189,0.00104100001045,1.0,0.0,0.0,0.0,1.0,0.0,0.0,0.0,1.0,-2.80487799644,19.3902435303,8.65853691101,1.0,0.0,0.0,0.0,1.0,0.0,0.0,0.0,1.0,0.0,-0.292092584273,9.36132790669,1.0,0.0,0.0,0.0,1.0,0.0,0.0,0.0,1.0
1481561748098225074,450,1481561748094726340,,15.0653963089,-11.4417629242,-156.488586426,0.0012009999482,1.0,0.0,0.0,0.0,1.0,0.0,0.0,0.0,1.0,-4.08536577225,23.5975627899,9.08536529541,1.0,0.0,0.0,0.0,1.0,0.0,0.0,0.0,1.0,1.34554133301,-0.684741674805,10.4961800781,1.0,0.0,0.0,0.0,1.0,0.0,0.0,0.0,1.0
1481561748108312581,451,1481561748105062596,,15.2592935562,-11.4334945679,-156.448440552,0.00112599995919,1.0,0.0,0.0,0.0,1.0,0.0,0.0,0.0,1.0,-6.28048801422,27.317073822,5.91463422775,1.0,0.0,0.0,0.0,1.0,0.0,0.0,0.0,1.0,-1.35990654297,-0.301669427446,10.5584293213,1.0,0.0,0.0,0.0,1.0,0.0,0.0,0.0,1.0
1481561748119249929,452,1481561748117404624,,15.5276021957,-11.5211515427,-156.499725342,0.00178900000174,1.0,0.0,0.0,0.0,1.0,0.0,0.0,0.0,1.0,-8.71951198578,17.5000019073,-5.54878091812,1.0,0.0,0.0,0.0,1.0,0.0,0.0,0.0,1.0,-3.14598098145,-1.09654436035,9.72045874023,1.0,0.0,0.0,0.0,1.0,0.0,0.0,0.0,1.0
1481561748128747386,453,1481561748127265882,,15.7965164185,-11.6407690048,-156.584472656,0.00130500004161,1.0,0.0,0.0,0.0,1.0,0.0,0.0,0.0,1.0,-6.95121955872,9.63414573669,-7.07317113876,1.0,0.0,0.0,0.0,1.0,0.0,0.0,0.0,1.0,-5.47314499512,-1.1875240965,8.84418093262,1.0,0.0,0.0,0.0,1.0,0.0,0.0,0.0,1.0
1481561748141222539,454,1481561748139426557,,16.0129985809,-11.6950187683,-156.653594971,0.00218400009908,1.0,0.0,0.0,0.0,1.0,0.0,0.0,0.0,1.0,-3.10975623131,-2.86585378647,-8.35365867615,1.0,0.0,0.0,0.0,1.0,0.0,0.0,0.0,1.0,-6.40209523926,-1.08217922346,9.00698664551,1.0,0.0,0.0,0.0,1.0,0.0,0.0,0.0,1.0
1481561748151665461,455,1481561748149989219,,16.0472335815,-11.6762256622,-156.671142578,0.00112499995157,1.0,0.0,0.0,0.0,1.0,0.0,0.0,0.0,1.0,2.5,-6.28048801422,-0.792682945728,1.0,0.0,0.0,0.0,1.0,0.0,0.0,0.0,1.0,-3.18428820801,-0.531512805087,9.78749638672,1.0,0.0,0.0,0.0,1.0,0.0,0.0,0.0,1.0
1481561748162797703,456,1481561748161282502,,16.0107574463,-11.5893144608,-156.61769104,0.0011490000179,1.0,0.0,0.0,0.0,1.0,0.0,0.0,0.0,1.0,5.48780488968,-2.92682933807,3.59756112099,1.0,0.0,0.0,0.0,1.0,0.0,0.0,0.0,1.0,-1.57059628906,-1.31202250977,9.20331118164,1.0,0.0,0.0,0.0,1.0,0.0,0.0,0.0,1.0
1481561748173664478,457,1481561748171711622,,15.8625888824,-11.4589300156,-156.522201538,0.00118000002112,1.0,0.0,0.0,0.0,1.0,0.0,0.0,0.0,1.0,4.39024400711,3.7804877758,9.20731735229,1.0,0.0,0.0,0.0,1.0,0.0,0.0,0.0,1.0,1.59453830566,-1.10612116699,11.6262432617,1.0,0.0,0.0,0.0,1.0,0.0,0.0,0.0,1.0
1481561748184193702,458,1481561748182694021,,15.7743673325,-11.3512916565,-156.429504395,0.00140399998054,1.0,0.0,0.0,0.0,1.0,0.0,0.0,0.0,1.0,-0.853658556938,13.5975618362,7.43902492523,1.0,0.0,0.0,0.0,1.0,0.0,0.0,0.0,1.0,0.402225878906,-0.574608398438,11.2431709961,1.0,0.0,0.0,0.0,1.0,0.0,0.0,0.0,1.0
1481561748195131934,459,1481561748193469233,,15.8275165558,-11.3511896133,-156.392364502,0.00105199997779,1.0,0.0,0.0,0.0,1.0,0.0,0.0,0.0,1.0,-8.29268264771,10.0609760284,-0.853658556938,1.0,0.0,0.0,0.0,1.0,0.0,0.0,0.0,1.0,-2.52827695312,-0.928950244141,10.6158901611,1.0,0.0,0.0,0.0,1.0,0.0,0.0,0.0,1.0
1481561748206456728,460,1481561748204496580,,15.9020366669,-11.4227428436,-156.400024414,0.00112300005276,1.0,0.0,0.0,0.0,1.0,0.0,0.0,0.0,1.0,-13.2926826477,8.65853691101,-3.17073178291,1.0,0.0,0.0,0.0,1.0,0.0,0.0,0.0,1.0,-4.39096584473,-1.08217922346,10.0891657959,1.0,0.0,0.0,0.0,1.0,0.0,0.0,0.0,1.0
1481561748218011937,461,1481561748216243819,,16.0854873657,-11.5290737152,-156.415756226,0.00160399999004,1.0,0.0,0.0,0.0,1.0,0.0,0.0,0.0,1.0,-10.8536586761,-0.914634168148,-3.35365867615,1.0,0.0,0.0,0.0,1.0,0.0,0.0,0.0,1.0,-6.75164868164,-1.00077629395,8.52335849468,1.0,0.0,0.0,0.0,1.0,0.0,0.0,0.0,1.0
1481561748228781211,462,1481561748226750648,,16.1544914246,-11.6000318527,-156.421218872,0.00109999999404,1.0,0.0,0.0,0.0,1.0,0.0,0.0,0.0,1.0,-4.2682929039,-10.6097564697,-1.09756100178,1.0,0.0,0.0,0.0,1.0,0.0,0.0,0.0,1.0,-4.46758029785,-1.23540805664,8.66222219097,1.0,0.0,0.0,0.0,1.0,0.0,0.0,0.0,1.0
1481561748239863193,463,1481561748238275232,,16.1031131744,-11.5645742416,-156.36517334,0.00149900000542,1.0,0.0,0.0,0.0,1.0,0.0,0.0,0.0,1.0,2.5,-9.5731716156,3.65853667259,1.0,0.0,0.0,0.0,1.0,0.0,0.0,0.0,1.0,-2.15478164027,-1.47003981934,8.68137521973,1.0,0.0,0.0,0.0,1.0,0.0,0.0,0.0,1.0
1481561748250877415,464,1481561748248644040,,15.9485578537,-11.4316883087,-156.269866943,0.00121899996884,1.0,0.0,0.0,0.0,1.0,0.0,0.0,0.0,1.0,7.68292665482,-6.95121955872,5.18292713165,1.0,0.0,0.0,0.0,1.0,0.0,0.0,0.0,1.0,-0.397437475586,-0.972045874023,9.50498117534,1.0,0.0,0.0,0.0,1.0,0.0,0.0,0.0,1.0
1481561748261125651,465,1481561748259724407,,15.7194652557,-11.2796783447,-156.166931152,0.00131399999373,1.0,0.0,0.0,0.0,1.0,0.0,0.0,0.0,1.0,7.01219511032,1.40243899822,6.40243911743,1.0,0.0,0.0,0.0,1.0,0.0,0.0,0.0,1.0,0.933738647461,-0.76614453125,10.539275708,1.0,0.0,0.0,0.0,1.0,0.0,0.0,0.0,1.0
1481561748272080133,466,1481561748270478734,,15.6268072128,-11.1650810242,-156.115158081,0.0010529999854,1.0,0.0,0.0,0.0,1.0,0.0,0.0,0.0,1.0,1.2804877758,-0.0609756112099,-0.975609779358,1.0,0.0,0.0,0.0,1.0,0.0,0.0,0.0,1.0,-1.62805712891,-0.579396801758,10.7068698242,1.0,0.0,0.0,0.0,1.0,0.0,0.0,0.0,1.0
1481561748283817320,467,1481561748281606914,,15.5302648544,-11.1723175049,-156.145004272,0.00131600000896,1.0,0.0,0.0,0.0,1.0,0.0,0.0,0.0,1.0,-4.87804889679,-1.52439022064,-4.63414621353,1.0,0.0,0.0,0.0,1.0,0.0,0.0,0.0,1.0,-2.4756045166,-1.02950671387,10.3668931885,1.0,0.0,0.0,0.0,1.0,0.0,0.0,0.0,1.0
1481561748294426232,468,1481561748292293689,,15.5471687317,-11.2097158432,-156.17829895,0.00103399995714,1.0,0.0,0.0,0.0,1.0,0.0,0.0,0.0,1.0,-6.28048801422,-7.43902492523,-5.79268312454,1.0,0.0,0.0,0.0,1.0,0.0,0.0,0.0,1.0,-4.04141240234,-0.746990917969,9.48103915874,1.0,0.0,0.0,0.0,1.0,0.0,0.0,0.0,1.0
1481561748304977070,469,1481561748302875308,,15.5669851303,-11.2593765259,-156.189926147,0.00153899996076,1.0,0.0,0.0,0.0,1.0,0.0,0.0,0.0,1.0,-5.42682933807,-16.5853652954,-4.81707286835,1.0,0.0,0.0,0.0,1.0,0.0,0.0,0.0,1.0,-5.14753356934,-1.32638771973,9.54807680523,1.0,0.0,0.0,0.0,1.0,0.0,0.0,0.0,1.0
1481561748316182593,470,1481561748313737239,,15.4942092896,-11.2546463013,-156.164932251,0.00111700000707,1.0,0.0,0.0,0.0,1.0,0.0,0.0,0.0,1.0,0.609756112099,-23.7804889679,-2.56097555161,1.0,0.0,0.0,0.0,1.0,0.0,0.0,0.0,1.0,-4.34787021484,-1.31681091309,8.64785698101,1.0,0.0,0.0,0.0,1.0,0.0,0.0,0.0,1.0
1481561748327082596,471,1481561748324522400,,15.3233776093,-11.1676626205,-156.085464478,0.00101799995173,1.0,0.0,0.0,0.0,1.0,0.0,0.0,0.0,1.0,5.67073154449,-28.2317066193,0.731707334518,1.0,0.0,0.0,0.0,1.0,0.0,0.0,0.0,1.0,-3.47159240723,-0.885854614258,9.21288798828,1.0,0.0,0.0,0.0,1.0,0.0,0.0,0.0,1.0
1481561748337738486,472,1481561748335660892,,15.0393371582,-11.037525177,-156.010421753,0.00149099994451,1.0,0.0,0.0,0.0,1.0,0.0,0.0,0.0,1.0,9.14634132385,-35.4268302917,-3.53658556938,1.0,0.0,0.0,0.0,1.0,0.0,0.0,0.0,1.0,-1.92014973145,-0.512359155273,9.76834277344,1.0,0.0,0.0,0.0,1.0,0.0,0.0,0.0,1.0
1481561748348690261,473,1481561748346767196,,14.6080350876,-10.8958683014,-155.934326172,0.00114700000267,1.0,0.0,0.0,0.0,1.0,0.0,0.0,0.0,1.0,11.2195119858,-29.4512195587,0.18292683363,1.0,0.0,0.0,0.0,1.0,0.0,0.0,0.0,1.0,0.0622492431641,-1.06781401349,10.0221281494,1.0,0.0,0.0,0.0,1.0,0.0,0.0,0.0,1.0
1481561748359116985,474,1481561748357850376,,14.1449804306,-10.7089757919,-155.825119019,0.00126599997748,1.0,0.0,0.0,0.0,1.0,0.0,0.0,0.0,1.0,9.81707286835,-17.0731716156,3.7804877758,1.0,0.0,0.0,0.0,1.0,0.0,0.0,0.0,1.0,1.87705410156,-0.814028564453,10.0556469727,1.0,0.0,0.0,0.0,1.0,0.0,0.0,0.0,1.0
1481561748368933243,475,1481561748367435698,,13.7728586197,-10.5534057617,-155.728622437,0.0010890000267,1.0,0.0,0.0,0.0,1.0,0.0,0.0,0.0,1.0,7.07317113876,-0.18292683363,7.07317113876,1.0,0.0,0.0,0.0,1.0,0.0,0.0,0.0,1.0,2.63362182617,-0.952892260742,10.7691190674,1.0,0.0,0.0,0.0,1.0,0.0,0.0,0.0,1.0
1481561748379471478,476,1481561748378001380,,13.5853500366,-10.451669693,-155.626815796,0.00273500010371,1.0,0.0,0.0,0.0,1.0,0.0,0.0,0.0,1.0,-1.95121955872,17.4390239716,11.1585359573,1.0,0.0,0.0,0.0,1.0,0.0,0.0,0.0,1.0,4.36702382812,-0.110133276367,11.511321582,1.0,0.0,0.0,0.0,1.0,0.0,0.0,0.0,1.0
1481561748389966014,477,1481561748388519354,,13.6682024002,-10.4512052536,-155.555984497,0.0011419999646,1.0,0.0,0.0,0.0,1.0,0.0,0.0,0.0,1.0,-9.20731735229,19.5121955872,3.23170733452,1.0,0.0,0.0,0.0,1.0,0.0,0.0,0.0,1.0,-1.78607443848,0.201112939453,10.553640918,1.0,0.0,0.0,0.0,1.0,0.0,0.0,0.0,1.0
1481561748402268928,478,1481561748400500811,,13.8026189804,-10.6129455566,-155.605300903,0.00255599990487,1.0,0.0,0.0,0.0,1.0,0.0,0.0,0.0,1.0,-20.3048782349,14.2073173523,-4.08536577225,1.0,0.0,0.0,0.0,1.0,0.0,0.0,0.0,1.0,-2.56179577637,-0.517147558594,10.7978494873,1.0,0.0,0.0,0.0,1.0,0.0,0.0,0.0,1.0
1481561748416021627,479,1481561748411026962,,14.0687122345,-10.7789201736,-155.651565552,0.000959000026342,1.0,0.0,0.0,0.0,1.0,0.0,0.0,0.0,1.0,-14.0243902206,4.93902444839,-3.04878044128,1.0,0.0,0.0,0.0,1.0,0.0,0.0,0.0,1.0,-6.09084902344,-0.593762048251,8.3030907729,1.0,0.0,0.0,0.0,1.0,0.0,0.0,0.0,1.0
1481561748423395865,480,1481561748421567436,,14.2320480347,-10.8382005692,-155.655990601,0.00108499999624,1.0,0.0,0.0,0.0,1.0,0.0,0.0,0.0,1.0,-9.14634132385,-9.39024448395,-1.46341466904,1.0,0.0,0.0,0.0,1.0,0.0,0.0,0.0,1.0,-5.34864650879,-0.234631762695,9.27034882812,1.0,0.0,0.0,0.0,1.0,0.0,0.0,0.0,1.0
1481561748435526957,481,1481561748431946036,,14.2930011749,-10.8450937271,-155.627883911,0.00109399994835,1.0,0.0,0.0,0.0,1.0,0.0,0.0,0.0,1.0,0.670731723309,-21.8902435303,-2.5,1.0,0.0,0.0,0.0,1.0,0.0,0.0,0.0,1.0,-5.43483776855,-0.359130249023,8.65264538433,1.0,0.0,0.0,0.0,1.0,0.0,0.0,0.0,1.0
1481561748444010357,482,1481561748441983178,,14.190202713,-10.801325798,-155.576416016,0.00101200002246,1.0,0.0,0.0,0.0,1.0,0.0,0.0,0.0,1.0,6.7682929039,-24.6341457367,-3.04878044128,1.0,0.0,0.0,0.0,1.0,0.0,0.0,0.0,1.0,-4.63517441406,-1.04866025408,8.75320126953,1.0,0.0,0.0,0.0,1.0,0.0,0.0,0.0,1.0
1481561748456978476,483,1481561748452232924,,14.0021705627,-10.6572093964,-155.546951294,0.00100399996154,1.0,0.0,0.0,0.0,1.0,0.0,0.0,0.0,1.0,12.4390249252,-34.634147644,-7.19512224197,1.0,0.0,0.0,0.0,1.0,0.0,0.0,0.0,1.0,-4.38138903809,-0.636857641602,9.39484672993,1.0,0.0,0.0,0.0,1.0,0.0,0.0,0.0,1.0
1481561748464864743,484,1481561748462719284,,13.5973930359,-10.4867277145,-155.528656006,0.00098600005731,1.0,0.0,0.0,0.0,1.0,0.0,0.0,0.0,1.0,15.3658533096,-37.6219520569,-8.59756088257,1.0,0.0,0.0,0.0,1.0,0.0,0.0,0.0,1.0,-2.84909997559,-1.80043964844,8.9591026123,1.0,0.0,0.0,0.0,1.0,0.0,0.0,0.0,1.0
1481561748478575359,485,1481561748473821266,,13.0917158127,-10.2735109329,-155.489303589,0.0010450000409,1.0,0.0,0.0,0.0,1.0,0.0,0.0,0.0,1.0,12.3780488968,-31.0975627899,-3.96341490746,1.0,0.0,0.0,0.0,1.0,0.0,0.0,0.0,1.0,-0.794874951172,-0.885854614258,10.5296989014,1.0,0.0,0.0,0.0,1.0,0.0,0.0,0.0,1.0
1481561748486351887,486,1481561748483871638,,12.6271696091,-10.1134910583,-155.454696655,0.000997000024654,1.0,0.0,0.0,0.0,1.0,0.0,0.0,0.0,1.0,11.9512195587,-25.9146347046,-1.2195122242,1.0,0.0,0.0,0.0,1.0,0.0,0.0,0.0,1.0,0.344765039063,-0.0143652099609,10.3860468018,1.0,0.0,0.0,0.0,1.0,0.0,0.0,0.0,1.0
1481561748499231986,487,1481561748496170593,,12.2152442932,-10.0012998581,-155.409683228,0.00105700001586,1.0,0.0,0.0,0.0,1.0,0.0,0.0,0.0,1.0,-2.62195134163,-12.3170728683,4.51219558716,1.0,0.0,0.0,0.0,1.0,0.0,0.0,0.0,1.0,4.15633378977,-2.32716386754,13.1585323242,1.0,0.0,0.0,0.0,1.0,0.0,0.0,0.0,1.0
1481561748507712677,488,1481561748504585660,,11.9878911972,-10.0988769531,-155.286560059,0.000975999981165,1.0,0.0,0.0,0.0,1.0,0.0,0.0,0.0,1.0,-11.7073173523,-0.487804889679,8.96341514587,1.0,0.0,0.0,0.0,1.0,0.0,0.0,0.0,1.0,2.18351191406,-1.51792385254,10.6015249512,1.0,0.0,0.0,0.0,1.0,0.0,0.0,0.0,1.0
1481561748520038768,489,1481561748517265239,,11.8835783005,-10.2800140381,-155.21711731,0.00263700005598,1.0,0.0,0.0,0.0,1.0,0.0,0.0,0.0,1.0,-8.47560977936,7.37804937363,4.87804889679,1.0,0.0,0.0,0.0,1.0,0.0,0.0,0.0,1.0,-0.517147558594,-2.13083962367,8.3030907729,1.0,0.0,0.0,0.0,1.0,0.0,0.0,0.0,1.0
1481561748530027369,490,1481561748527708213,,11.8999185562,-10.3877973557,-155.192428589,0.0010890000267,1.0,0.0,0.0,0.0,1.0,0.0,0.0,0.0,1.0,-3.47560977936,7.37804937363,1.8902438879,1.0,0.0,0.0,0.0,1.0,0.0,0.0,0.0,1.0,-1.11090957031,-1.71903679199,8.61433815776,1.0,0.0,0.0,0.0,1.0,0.0,0.0,0.0,1.0
1481561748540820290,491,1481561748538556029,,11.9953594208,-10.2793598175,-155.147872925,0.00117900001351,1.0,0.0,0.0,0.0,1.0,0.0,0.0,0.0,1.0,-1.2804877758,4.81707286835,0.792682945728,1.0,0.0,0.0,0.0,1.0,0.0,0.0,0.0,1.0,-2.83473476562,1.04387185076,10.4291424316,1.0,0.0,0.0,0.0,1.0,0.0,0.0,0.0,1.0
1481561748550794412,492,1481561748548561141,,12.1053876877,-10.1775283813,-155.111175537,0.000992999994196,1.0,0.0,0.0,0.0,1.0,0.0,0.0,0.0,1.0,0.731707334518,-2.68292689323,0.426829278469,1.0,0.0,0.0,0.0,1.0,0.0,0.0,0.0,1.0,-4.11802685547,0.469263525391,10.5009684814,1.0,0.0,0.0,0.0,1.0,0.0,0.0,0.0,1.0
1481561748562091081,493,1481561748559016042,,12.1127681732,-10.0818195343,-155.061889648,0.00111099996138,1.0,0.0,0.0,0.0,1.0,0.0,0.0,0.0,1.0,-0.670731723309,-9.51219558716,0.243902444839,1.0,0.0,0.0,0.0,1.0,0.0,0.0,0.0,1.0,-3.14598098145,-0.402225878906,9.50498117534,1.0,0.0,0.0,0.0,1.0,0.0,0.0,0.0,1.0
1481561748573850820,494,1481561748569864796,,12.051692009,-10.0082960129,-155.033340454,0.000973000016529,1.0,0.0,0.0,0.0,1.0,0.0,0.0,0.0,1.0,-0.975609779358,-13.1707324982,-4.63414621353,1.0,0.0,0.0,0.0,1.0,0.0,0.0,0.0,1.0,-3.19865341797,-0.632069238281,9.84974562988,1.0,0.0,0.0,0.0,1.0,0.0,0.0,0.0,1.0
1481561748583602391,495,1481561748580089959,,11.887963295,-10.0271759033,-155.033966064,0.00101799995173,1.0,0.0,0.0,0.0,1.0,0.0,0.0,0.0,1.0,0.792682945728,-17.8048782349,-3.90243911743,1.0,0.0,0.0,0.0,1.0,0.0,0.0,0.0,1.0,-1.84832368164,-1.77649763184,9.86889924316,1.0,0.0,0.0,0.0,1.0,0.0,0.0,0.0,1.0
1481561748601064918,496,1481561748593545472,,11.6182060242,-10.0324630737,-154.992416382,0.0010450000409,1.0,0.0,0.0,0.0,1.0,0.0,0.0,0.0,1.0,0.18292683363,-7.07317113876,4.08536577225,1.0,0.0,0.0,0.0,1.0,0.0,0.0,0.0,1.0,-0.00957680664062,-1.56101948242,9.62947966167,1.0,0.0,0.0,0.0,1.0,0.0,0.0,0.0,1.0
1481561748606269894,497,1481561748603245012,,11.3805980682,-9.99716567993,-154.879257202,0.00212200009264,1.0,0.0,0.0,0.0,1.0,0.0,0.0,0.0,1.0,-2.92682933807,7.01219511032,8.78048801422,1.0,0.0,0.0,0.0,1.0,0.0,0.0,0.0,1.0,2.33195227086,-1.64721074219,10.4866032715,1.0,0.0,0.0,0.0,1.0,0.0,0.0,0.0,1.0
1481561748622421593,498,1481561748616813337,,11.3236455917,-9.97737121582,-154.775222778,0.00463199988008,1.0,0.0,0.0,0.0,1.0,0.0,0.0,0.0,1.0,-4.14634132385,23.1707324982,7.07317113876,1.0,0.0,0.0,0.0,1.0,0.0,0.0,0.0,1.0,1.40779057617,0.196324536133,9.52892319194,1.0,0.0,0.0,0.0,1.0,0.0,0.0,0.0,1.0
1481561748637032049,499,1481561748626955375,,11.3769760132,-9.9589548111,-154.737854004,0.00103199994192,1.0,0.0,0.0,0.0,1.0,0.0,0.0,0.0,1.0,-7.50000047684,30.7926845551,8.29268264771,1.0,0.0,0.0,0.0,1.0,0.0,0.0,0.0,1.0,1.94409174805,0.0430956298828,10.1992990723,1.0,0.0,0.0,0.0,1.0,0.0,0.0,0.0,1.0
1481561748642346192,500,1481561748639269956,,11.6273813248,-9.93877696991,-154.734786987,0.00295000011101,1.0,0.0,0.0,0.0,1.0,0.0,0.0,0.0,1.0,-6.82926845551,30.5487804413,1.70731711388,1.0,0.0,0.0,0.0,1.0,0.0,0.0,0.0,1.0,-0.545877978516,0.339976635742,10.9654436035,1.0,0.0,0.0,0.0,1.0,0.0,0.0,0.0,1.0
1481561748664802602,501,1481561748649306682,,11.9495391846,-9.97097110748,-154.757843018,0.00105399999302,1.0,0.0,0.0,0.0,1.0,0.0,0.0,0.0,1.0,-8.17073154449,30.9146327972,-1.58536589146,1.0,0.0,0.0,0.0,1.0,0.0,0.0,0.0,1.0,-2.3415290775,-0.430956298828,9.89762966309,1.0,0.0,0.0,0.0,1.0,0.0,0.0,0.0,1.0
1481561748665004320,502,1481561748660390903,,12.3183021545,-10.0425291061,-154.81401062,0.00116099999286,1.0,0.0,0.0,0.0,1.0,0.0,0.0,0.0,1.0,-9.87804889679,24.2073173523,-3.23170733452,1.0,0.0,0.0,0.0,1.0,0.0,0.0,0.0,1.0,-5.24809003906,-0.426167895508,10.0795889893,1.0,0.0,0.0,0.0,1.0,0.0,0.0,0.0,1.0
1481561748678553843,503,1481561748670555077,,12.6534261703,-10.1249513626,-154.885421753,0.00121300003957,1.0,0.0,0.0,0.0,1.0,0.0,0.0,0.0,1.0,-8.59756088257,9.32926845551,-7.62195110321,1.0,0.0,0.0,0.0,1.0,0.0,0.0,0.0,1.0,-5.93762011719,-1.00556469727,8.8393925293,1.0,0.0,0.0,0.0,1.0,0.0,0.0,0.0,1.0
1481561748684170797,504,1481561748681295237,,12.8858375549,-10.2147760391,-154.980789185,0.00110800005496,1.0,0.0,0.0,0.0,1.0,0.0,0.0,0.0,1.0,-4.63414621353,-10.7317075729,-12.0121955872,1.0,0.0,0.0,0.0,1.0,0.0,0.0,0.0,1.0,-8.10676682129,-1.41257897949,8.39407043599,1.0,0.0,0.0,0.0,1.0,0.0,0.0,0.0,1.0
1481561748696447878,505,1481561748692069460,,12.9361791611,-10.249089241,-155.081085205,0.000979000004008,1.0,0.0,0.0,0.0,1.0,0.0,0.0,0.0,1.0,1.52439022064,-29.8780498505,-17.0731716156,1.0,0.0,0.0,0.0,1.0,0.0,0.0,0.0,1.0,-8.58560773784,-0.952892260742,8.26478413086,1.0,0.0,0.0,0.0,1.0,0.0,0.0,0.0,1.0
1481561748705462161,506,1481561748703084255,,12.74122715,-10.2209205627,-155.195648193,0.00101899995934,1.0,0.0,0.0,0.0,1.0,0.0,0.0,0.0,1.0,8.78048801422,-50.9146347046,-18.4146347046,1.0,0.0,0.0,0.0,1.0,0.0,0.0,0.0,1.0,-5.55933625488,-0.962469067383,9.27513723145,1.0,0.0,0.0,0.0,1.0,0.0,0.0,0.0,1.0
1481561748720278084,507,1481561748713180928,,12.2709941864,-10.1143903732,-155.239395142,0.00102099997457,1.0,0.0,0.0,0.0,1.0,0.0,0.0,0.0,1.0,15.3048791885,-50.9146347046,-10.0609760284,1.0,0.0,0.0,0.0,1.0,0.0,0.0,0.0,1.0,-1.82917006836,-1.12048637695,9.76834277344,1.0,0.0,0.0,0.0,1.0,0.0,0.0,0.0,1.0
1481561748726384932,508,1481561748723313592,,11.6994915009,-9.86575031281,-155.208114624,0.00106499996036,1.0,0.0,0.0,0.0,1.0,0.0,0.0,0.0,1.0,24.2073173523,-40.8536605835,-3.23170733452,1.0,0.0,0.0,0.0,1.0,0.0,0.0,0.0,1.0,2.9927520752,0.397437475586,11.271901416,1.0,0.0,0.0,0.0,1.0,0.0,0.0,0.0,1.0
1481561748739736383,509,1481561748734221095,,11.1667346954,-9.60314178467,-155.06262207,0.00104799994733,1.0,0.0,0.0,0.0,1.0,0.0,0.0,0.0,1.0,4.51219558716,-15.1829271317,18.1097564697,1.0,0.0,0.0,0.0,1.0,0.0,0.0,0.0,1.0,4.2329482429,-2.54264216309,14.4897084473,1.0,0.0,0.0,0.0,1.0,0.0,0.0,0.0,1.0
1481561748748669156,510,1481561748744523601,,10.8492555618,-9.63780117035,-154.786911011,0.00103699997999,1.0,0.0,0.0,0.0,1.0,0.0,0.0,0.0,1.0,-13.9024391174,8.47560977936,19.3292694092,1.0,0.0,0.0,0.0,1.0,0.0,0.0,0.0,1.0,3.18907661133,-0.368707055664,10.6972930176,1.0,0.0,0.0,0.0,1.0,0.0,0.0,0.0,1.0
1481561748759379316,511,1481561748755471001,,10.8198204041,-9.81186294556,-154.649856567,0.00114099995699,1.0,0.0,0.0,0.0,1.0,0.0,0.0,0.0,1.0,-25.0,14.5731706619,8.96341514587,1.0,0.0,0.0,0.0,1.0,0.0,0.0,0.0,1.0,-1.41257897949,-1.98718737793,8.97825622559,1.0,0.0,0.0,0.0,1.0,0.0,0.0,0.0,1.0
1481561748768423912,512,1481561748765430227,,10.9216775894,-10.0515699387,-154.637619019,0.000987999956124,1.0,0.0,0.0,0.0,1.0,0.0,0.0,0.0,1.0,-7.62195110321,0.12195122242,-2.62195134163,1.0,0.0,0.0,0.0,1.0,0.0,0.0,0.0,1.0,-2.69587106934,-2.3654710941,7.95353791504,1.0,0.0,0.0,0.0,1.0,0.0,0.0,0.0,1.0
1481561748780579482,513,1481561748776490855,,10.9871435165,-10.1268939972,-154.698410034,0.00115599995479,1.0,0.0,0.0,0.0,1.0,0.0,0.0,0.0,1.0,1.95121955872,-7.86585378647,-6.64634132385,1.0,0.0,0.0,0.0,1.0,0.0,0.0,0.0,1.0,-3.09809694824,-0.416591088867,8.17859287109,1.0,0.0,0.0,0.0,1.0,0.0,0.0,0.0,1.0
1481561748789557567,514,1481561748786373832,,11.0495080948,-10.0676527023,-154.764938354,0.00097499997355,1.0,0.0,0.0,0.0,1.0,0.0,0.0,0.0,1.0,7.31707334518,-25.5487804413,-13.2317075729,1.0,0.0,0.0,0.0,1.0,0.0,0.0,0.0,1.0,-5.29597407227,-0.172382519531,9.42357714985,1.0,0.0,0.0,0.0,1.0,0.0,0.0,0.0,1.0
1481561748799942886,515,1481561748798111592,,10.8555488586,-9.87293148041,-154.811706543,0.00178900000174,1.0,0.0,0.0,0.0,1.0,0.0,0.0,0.0,1.0,5.79268312454,-33.4756126404,-9.02439117432,1.0,0.0,0.0,0.0,1.0,0.0,0.0,0.0,1.0,-6.29675036621,0.670376464844,12.2487356934,1.0,0.0,0.0,0.0,1.0,0.0,0.0,0.0,1.0
1481561748810367110,516,1481561748808188370,,10.5513849258,-9.76561927795,-154.755584717,0.000986999948509,1.0,0.0,0.0,0.0,1.0,0.0,0.0,0.0,1.0,-1.70731711388,-32.6219520569,-1.03658533096,1.0,0.0,0.0,0.0,1.0,0.0,0.0,0.0,1.0,-1.98718737793,-0.751779321289,11.0564232666,1.0,0.0,0.0,0.0,1.0,0.0,0.0,0.0,1.0
1481561748821576748,517,1481561748819011447,,10.2424612045,-9.76213550568,-154.648864746,0.00113099999726,1.0,0.0,0.0,0.0,1.0,0.0,0.0,0.0,1.0,-3.35365867615,-31.6463413239,5.0,1.0,0.0,0.0,0.0,1.0,0.0,0.0,0.0,1.0,-1.12048637695,-1.22583125,9.65342167827,1.0,0.0,0.0,0.0,1.0,0.0,0.0,0.0,1.0
1481561748832718521,518,1481561748829138849,,9.84269332886,-9.73860836029,-154.479309082,0.000976999988779,1.0,0.0,0.0,0.0,1.0,0.0,0.0,0.0,1.0,-4.87804889679,-23.658536911,10.3658542633,1.0,0.0,0.0,0.0,1.0,0.0,0.0,0.0,1.0,0.177170922852,-1.02950671387,9.62469125835,1.0,0.0,0.0,0.0,1.0,0.0,0.0,0.0,1.0
1481561748843392536,519,1481561748839960312,,9.45680713654,-9.74216747284,-154.312606812,0.00102099997457,1.0,0.0,0.0,0.0,1.0,0.0,0.0,0.0,1.0,-0.426829278469,-7.25609779358,14.3292694092,1.0,0.0,0.0,0.0,1.0,0.0,0.0,0.0,1.0,3.3949779541,-1.58974990234,9.88805285645,1.0,0.0,0.0,0.0,1.0,0.0,0.0,0.0,1.0
1481561748855002432,520,1481561748850727920,,9.22996711731,-9.73683547974,-154.148330688,0.000986999948509,1.0,0.0,0.0,0.0,1.0,0.0,0.0,0.0,1.0,0.0609756112099,2.31707310677,14.8170728683,1.0,0.0,0.0,0.0,1.0,0.0,0.0,0.0,1.0,3.07894333496,-1.58496149902,9.31344387349,1.0,0.0,0.0,0.0,1.0,0.0,0.0,0.0,1.0
1481561748863721352,521,1481561748861130269,,9.09399223328,-9.70469474792,-154.026977539,0.00103699997999,1.0,0.0,0.0,0.0,1.0,0.0,0.0,0.0,1.0,-3.65853667259,11.5243911743,9.69512176514,1.0,0.0,0.0,0.0,1.0,0.0,0.0,0.0,1.0,3.20344182129,-1.61369191895,10.0173397461,1.0,0.0,0.0,0.0,1.0,0.0,0.0,0.0,1.0
1481561748874316461,522,1481561748872080898,,9.0490322113,-9.6531085968,-153.927810669,0.000979000004008,1.0,0.0,0.0,0.0,1.0,0.0,0.0,0.0,1.0,-0.853658556938,23.7195129395,9.20731735229,1.0,0.0,0.0,0.0,1.0,0.0,0.0,0.0,1.0,2.37504819301,1.29286889648,10.8553103271,1.0,0.0,0.0,0.0,1.0,0.0,0.0,0.0,1.0
1481561748885699743,523,1481561748882828454,,9.16321182251,-9.55259513855,-153.875167847,0.000981000019237,1.0,0.0,0.0,0.0,1.0,0.0,0.0,0.0,1.0,-5.85365867615,33.7195129395,7.31707334518,1.0,0.0,0.0,0.0,1.0,0.0,0.0,0.0,1.0,1.30244570312,1.17794714373,9.69172832031,1.0,0.0,0.0,0.0,1.0,0.0,0.0,0.0,1.0
1481561748898816716,524,1481561748893708614,,9.36010742188,-9.48409843445,-153.825531006,0.00104100001045,1.0,0.0,0.0,0.0,1.0,0.0,0.0,0.0,1.0,-6.34146356583,44.2682914734,6.95121955872,1.0,0.0,0.0,0.0,1.0,0.0,0.0,0.0,1.0,1.80043964844,-0.00478840332031,9.38526992329,1.0,0.0,0.0,0.0,1.0,0.0,0.0,0.0,1.0
1481561748908477611,525,1481561748904564868,,9.69216918945,-9.48944950104,-153.821792603,0.00123599998187,1.0,0.0,0.0,0.0,1.0,0.0,0.0,0.0,1.0,-3.53658556938,52.5,6.15853643417,1.0,0.0,0.0,0.0,1.0,0.0,0.0,0.0,1.0,2.12126281703,-0.746990917969,10.5775829346,1.0,0.0,0.0,0.0,1.0,0.0,0.0,0.0,1.0
1481561748920006726,526,1481561748916317628,,10.1881961823,-9.54424858093,-153.880401611,0.00120900000911,1.0,0.0,0.0,0.0,1.0,0.0,0.0,0.0,1.0,-2.98780488968,50.2439041138,-1.8292683363,1.0,0.0,0.0,0.0,1.0,0.0,0.0,0.0,1.0,-1.69030637207,-0.905008227539,9.07881269531,1.0,0.0,0.0,0.0,1.0,0.0,0.0,0.0,1.0
1481561748930035431,527,1481561748926570499,,10.7066793442,-9.61937713623,-154.001159668,0.000985000049695,1.0,0.0,0.0,0.0,1.0,0.0,0.0,0.0,1.0,-6.40243911743,45.7926826477,-7.43902492523,1.0,0.0,0.0,0.0,1.0,0.0,0.0,0.0,1.0,-4.50588752441,-1.09175595703,9.79707319336,1.0,0.0,0.0,0.0,1.0,0.0,0.0,0.0,1.0
1481561748940576634,528,1481561748937366649,,11.2201433182,-9.6661233902,-154.153869629,0.00152900000103,1.0,0.0,0.0,0.0,1.0,0.0,0.0,0.0,1.0,-7.31707334518,35.9146347046,-9.63414573669,1.0,0.0,0.0,0.0,1.0,0.0,0.0,0.0,1.0,-4.88417138672,-0.0143652099609,10.0221281494,1.0,0.0,0.0,0.0,1.0,0.0,0.0,0.0,1.0
1481561748953700795,529,1481561748948171132,,11.6621847153,-9.75004768372,-154.293014526,0.00100100005511,1.0,0.0,0.0,0.0,1.0,0.0,0.0,0.0,1.0,-11.0365858078,30.4268321991,-6.7682929039,1.0,0.0,0.0,0.0,1.0,0.0,0.0,0.0,1.0,-3.7253777832,-0.292092584273,10.4291424316,1.0,0.0,0.0,0.0,1.0,0.0,0.0,0.0,1.0
1481561748961299198,530,1481561748958810928,,12.0655956268,-9.85165214539,-154.380111694,0.00141400005668,1.0,0.0,0.0,0.0,1.0,0.0,0.0,0.0,1.0,-13.1707324982,24.6951236725,-2.80487799644,1.0,0.0,0.0,0.0,1.0,0.0,0.0,0.0,1.0,-4.31914008718,-0.46447512207,9.35175110005,1.0,0.0,0.0,0.0,1.0,0.0,0.0,0.0,1.0
1481561748972657481,531,1481561748969531349,,12.4136590958,-9.96984195709,-154.423171997,0.000981000019237,1.0,0.0,0.0,0.0,1.0,0.0,0.0,0.0,1.0,-11.7073173523,20.975610733,-0.487804889679,1.0,0.0,0.0,0.0,1.0,0.0,0.0,0.0,1.0,-3.57693728027,-1.2976572998,9.52413478862,1.0,0.0,0.0,0.0,1.0,0.0,0.0,0.0,1.0
1481561748983130143,532,1481561748980522342,,12.7076654434,-10.113781929,-154.450424194,0.00103399995714,1.0,0.0,0.0,0.0,1.0,0.0,0.0,0.0,1.0,-7.80487823486,16.341463089,0.670731723309,1.0,0.0,0.0,0.0,1.0,0.0,0.0,0.0,1.0,-3.0406361084,-2.49475812988,9.65821008159,1.0,0.0,0.0,0.0,1.0,0.0,0.0,0.0,1.0
1481561748996238678,533,1481561748991232294,,12.9645328522,-10.1924333572,-154.462493896,0.00099400000181,1.0,0.0,0.0,0.0,1.0,0.0,0.0,0.0,1.0,-2.62195134163,7.43902492523,-2.74390244484,1.0,0.0,0.0,0.0,1.0,0.0,0.0,0.0,1.0,-5.08528432617,-1.45088620605,9.37090471333,1.0,0.0,0.0,0.0,1.0,0.0,0.0,0.0,1.0
1481561749004124997,534,1481561749001627612,,13.1387014389,-10.2361164093,-154.504592896,0.000980000011623,1.0,0.0,0.0,0.0,1.0,0.0,0.0,0.0,1.0,0.12195122242,-5.54878091812,-7.74390268326,1.0,0.0,0.0,0.0,1.0,0.0,0.0,0.0,1.0,-6.29196196289,-1.36469494629,9.16500395508,1.0,0.0,0.0,0.0,1.0,0.0,0.0,0.0,1.0
1481561749016989263,535,1481561749012753917,,13.1819114685,-10.2226114273,-154.55859375,0.00101400003769,1.0,0.0,0.0,0.0,1.0,0.0,0.0,0.0,1.0,2.74390244484,-23.2926845551,-11.2804880142,1.0,0.0,0.0,0.0,1.0,0.0,0.0,0.0,1.0,-7.03895288086,-0.545877978516,9.79707319336,1.0,0.0,0.0,0.0,1.0,0.0,0.0,0.0,1.0
1481561749025513808,536,1481561749023283193,,13.0270223618,-10.1644010544,-154.617340088,0.00159400003031,1.0,0.0,0.0,0.0,1.0,0.0,0.0,0.0,1.0,5.97560977936,-36.7073173523,-13.9634151459,1.0,0.0,0.0,0.0,1.0,0.0,0.0,0.0,1.0,-6.23928952637,-0.900219824219,9.23204160156,1.0,0.0,0.0,0.0,1.0,0.0,0.0,0.0,1.0
1481561749038966040,537,1481561749034237311,,12.6981992722,-10.1026315689,-154.662658691,0.00105199997779,1.0,0.0,0.0,0.0,1.0,0.0,0.0,0.0,1.0,8.96341514587,-47.2560958862,-11.4634151459,1.0,0.0,0.0,0.0,1.0,0.0,0.0,0.0,1.0,-3.64397492676,-1.2737152832,9.5432884019,1.0,0.0,0.0,0.0,1.0,0.0,0.0,0.0,1.0
1481561749045547833,538,1481561749043989403,,12.2539243698,-9.99245834351,-154.659347534,0.00107799994294,1.0,0.0,0.0,0.0,1.0,0.0,0.0,0.0,1.0,11.1585359573,-47.134147644,-6.28048801422,1.0,0.0,0.0,0.0,1.0,0.0,0.0,0.0,1.0,-1.40300217285,-0.9193734375,9.48582756206,1.0,0.0,0.0,0.0,1.0,0.0,0.0,0.0,1.0
1481561749058274964,539,1481561749054645970,,11.7890720367,-9.84741210938,-154.612457275,0.00105700001586,1.0,0.0,0.0,0.0,1.0,0.0,0.0,0.0,1.0,13.4146347046,-43.7804870605,-2.92682933807,1.0,0.0,0.0,0.0,1.0,0.0,0.0,0.0,1.0,-0.263362164351,-0.531512805087,9.71567033691,1.0,0.0,0.0,0.0,1.0,0.0,0.0,0.0,1.0
1481561749067238882,540,1481561749065332901,,11.2332468033,-9.67210578918,-154.510986328,0.00120699999388,1.0,0.0,0.0,0.0,1.0,0.0,0.0,0.0,1.0,4.81707286835,-31.0975627899,4.63414621353,1.0,0.0,0.0,0.0,1.0,0.0,0.0,0.0,1.0,2.03985981445,-1.65199914551,13.1872627441,1.0,0.0,0.0,0.0,1.0,0.0,0.0,0.0,1.0
1481561749079028465,541,1481561749076529258,,10.7756643295,-9.70466518402,-154.296127319,0.00138000003062,1.0,0.0,0.0,0.0,1.0,0.0,0.0,0.0,1.0,-6.21951246262,-9.32926845551,16.9512195587,1.0,0.0,0.0,0.0,1.0,0.0,0.0,0.0,1.0,3.9600095459,-1.2737152832,11.4011883057,1.0,0.0,0.0,0.0,1.0,0.0,0.0,0.0,1.0
1481561749089304357,542,1481561749087598948,,10.5033073425,-9.75864982605,-154.080963135,0.00120299996343,1.0,0.0,0.0,0.0,1.0,0.0,0.0,0.0,1.0,-7.07317113876,19.6341457367,24.5121955872,1.0,0.0,0.0,0.0,1.0,0.0,0.0,0.0,1.0,6.33505759277,-1.01035310059,9.32780908345,1.0,0.0,0.0,0.0,1.0,0.0,0.0,0.0,1.0
1481561749100370558,543,1481561749097876767,,10.5350885391,-9.80601119995,-153.849075317,0.00144799996633,1.0,0.0,0.0,0.0,1.0,0.0,0.0,0.0,1.0,-6.21951246262,42.9878044128,27.1341457367,1.0,0.0,0.0,0.0,1.0,0.0,0.0,0.0,1.0,4.40533105469,-0.837970581055,8.48983967144,1.0,0.0,0.0,0.0,1.0,0.0,0.0,0.0,1.0
1481561749110481034,544,1481561749109031978,,10.8939113617,-9.74643707275,-153.706481934,0.00128299999051,1.0,0.0,0.0,0.0,1.0,0.0,0.0,0.0,1.0,-6.09756088257,45.1219520569,16.158536911,1.0,0.0,0.0,0.0,1.0,0.0,0.0,0.0,1.0,-1.45567460937,0.191536132812,9.57680722515,1.0,0.0,0.0,0.0,1.0,0.0,0.0,0.0,1.0
1481561749121441349,545,1481561749119559691,,11.3447275162,-9.70797729492,-153.605255127,0.00127100001555,1.0,0.0,0.0,0.0,1.0,0.0,0.0,0.0,1.0,-6.34146356583,29.7560997009,7.50000047684,1.0,0.0,0.0,0.0,1.0,0.0,0.0,0.0,1.0,-3.0166940918,0.292092584273,10.7403886475,1.0,0.0,0.0,0.0,1.0,0.0,0.0,0.0,1.0
1481561749132470259,546,1481561749130492559,,11.7002325058,-9.73839473724,-153.609283447,0.001007999992,1.0,0.0,0.0,0.0,1.0,0.0,0.0,0.0,1.0,-10.4268293381,16.158536911,-6.21951246262,1.0,0.0,0.0,0.0,1.0,0.0,0.0,0.0,1.0,-6.01902297363,0.239420166016,9.70130512695,1.0,0.0,0.0,0.0,1.0,0.0,0.0,0.0,1.0
1481561749143634948,547,1481561749141751623,,11.9219293594,-9.79533290863,-153.719818115,0.00117499998305,1.0,0.0,0.0,0.0,1.0,0.0,0.0,0.0,1.0,-8.17073154449,-7.19512224197,-14.5731706619,1.0,0.0,0.0,0.0,1.0,0.0,0.0,0.0,1.0,-6.00465776367,-0.124498486328,9.32302068013,1.0,0.0,0.0,0.0,1.0,0.0,0.0,0.0,1.0
1481561749153727716,548,1481561749152060328,,11.9408950806,-9.85284328461,-153.799713135,0.00102800002787,1.0,0.0,0.0,0.0,1.0,0.0,0.0,0.0,1.0,-4.08536577225,-12.0731716156,-9.69512176514,1.0,0.0,0.0,0.0,1.0,0.0,0.0,0.0,1.0,-3.78283862305,-0.890643017578,9.02614025879,1.0,0.0,0.0,0.0,1.0,0.0,0.0,0.0,1.0
1481561749164770063,549,1481561749162633405,,11.8688821793,-9.81689739227,-153.820053101,0.00135999999475,1.0,0.0,0.0,0.0,1.0,0.0,0.0,0.0,1.0,5.67073154449,-2.01219511032,-2.98780488968,1.0,0.0,0.0,0.0,1.0,0.0,0.0,0.0,1.0,-2.98317526855,-0.627280834961,9.16021555176,1.0,0.0,0.0,0.0,1.0,0.0,0.0,0.0,1.0
1481561749174504186,550,1481561749172729402,,11.8190450668,-9.73709201813,-153.785903931,0.00102600001264,1.0,0.0,0.0,0.0,1.0,0.0,0.0,0.0,1.0,6.58536624908,-1.64634156227,3.65853667259,1.0,0.0,0.0,0.0,1.0,0.0,0.0,0.0,1.0,-0.751779321289,-1.5322890625,10.3525279785,1.0,0.0,0.0,0.0,1.0,0.0,0.0,0.0,1.0
1481561749185403408,551,1481561749183562114,,11.6646976471,-9.6288022995,-153.751663208,0.00101300003007,1.0,0.0,0.0,0.0,1.0,0.0,0.0,0.0,1.0,8.35365867615,5.36585378647,3.23170733452,1.0,0.0,0.0,0.0,1.0,0.0,0.0,0.0,1.0,2.06380183105,-0.598550451572,10.5296989014,1.0,0.0,0.0,0.0,1.0,0.0,0.0,0.0,1.0
1481561749197838613,552,1481561749195313364,,11.6343832016,-9.54643535614,-153.751998901,0.00109200004954,1.0,0.0,0.0,0.0,1.0,0.0,0.0,0.0,1.0,0.975609779358,8.84146404266,-0.975609779358,1.0,0.0,0.0,0.0,1.0,0.0,0.0,0.0,1.0,0.359130249023,-0.77093293457,11.0420580566,1.0,0.0,0.0,0.0,1.0,0.0,0.0,0.0,1.0
1481561749206795240,553,1481561749204678739,,11.601067543,-9.54038047791,-153.758453369,0.00124300003517,1.0,0.0,0.0,0.0,1.0,0.0,0.0,0.0,1.0,-6.95121955872,16.5243911743,0.426829278469,1.0,0.0,0.0,0.0,1.0,0.0,0.0,0.0,1.0,0.713472094727,-0.785298144531,11.511321582,1.0,0.0,0.0,0.0,1.0,0.0,0.0,0.0,1.0
1481561749220178722,554,1481561749218444459,,11.7876501083,-9.61403942108,-153.752334595,0.00412299996242,1.0,0.0,0.0,0.0,1.0,0.0,0.0,0.0,1.0,-12.8658542633,20.1219520569,1.34146344662,1.0,0.0,0.0,0.0,1.0,0.0,0.0,0.0,1.0,-1.4604630127,-0.316034619141,10.1274730225,1.0,0.0,0.0,0.0,1.0,0.0,0.0,0.0,1.0
1481561749231394922,555,1481561749229376650,,12.0584383011,-9.71360778809,-153.731872559,0.00112599995919,1.0,0.0,0.0,0.0,1.0,0.0,0.0,0.0,1.0,-14.5731706619,15.3658533096,2.19512200356,1.0,0.0,0.0,0.0,1.0,0.0,0.0,0.0,1.0,-3.89776030273,-0.248996972656,9.70130512695,1.0,0.0,0.0,0.0,1.0,0.0,0.0,0.0,1.0
1481561749242241749,556,1481561749240530506,,12.3805351257,-9.84960365295,-153.750534058,0.00117499998305,1.0,0.0,0.0,0.0,1.0,0.0,0.0,0.0,1.0,-12.0731716156,1.8292683363,-2.56097555161,1.0,0.0,0.0,0.0,1.0,0.0,0.0,0.0,1.0,-7.74284816895,-1.12048637695,9.04529387207,1.0,0.0,0.0,0.0,1.0,0.0,0.0,0.0,1.0
1481561749253904718,557,1481561749251651603,,12.5511665344,-9.95404434204,-153.79119873,0.00116200000048,1.0,0.0,0.0,0.0,1.0,0.0,0.0,0.0,1.0,-5.06097555161,-26.0365848541,-9.81707286835,1.0,0.0,0.0,0.0,1.0,0.0,0.0,0.0,1.0,-8.65264538433,-1.23540805664,8.26478413086,1.0,0.0,0.0,0.0,1.0,0.0,0.0,0.0,1.0
1481561749263281811,558,1481561749261825932,,12.3722829819,-9.95535755157,-153.859893799,0.00109899998643,1.0,0.0,0.0,0.0,1.0,0.0,0.0,0.0,1.0,4.08536577225,-47.5609779358,-15.9146347046,1.0,0.0,0.0,0.0,1.0,0.0,0.0,0.0,1.0,-6.78516750488,-1.58496149902,8.69574042969,1.0,0.0,0.0,0.0,1.0,0.0,0.0,0.0,1.0
1481561749277605862,559,1481561749272972133,,11.930932045,-9.87742614746,-153.907043457,0.00103199994192,1.0,0.0,0.0,0.0,1.0,0.0,0.0,0.0,1.0,13.841463089,-47.317073822,-10.4268293381,1.0,0.0,0.0,0.0,1.0,0.0,0.0,0.0,1.0,-2.56179577637,-1.04866025408,9.06444748535,1.0,0.0,0.0,0.0,1.0,0.0,0.0,0.0,1.0
1481561749285880356,560,1481561749283732085,,11.4398374557,-9.62378501892,-153.862854004,0.00105199997779,1.0,0.0,0.0,0.0,1.0,0.0,0.0,0.0,1.0,22.0121955872,-44.1463432312,-5.67073154449,1.0,0.0,0.0,0.0,1.0,0.0,0.0,0.0,1.0,-0.450109912109,-1.24019645996,9.27992563477,1.0,0.0,0.0,0.0,1.0,0.0,0.0,0.0,1.0
1481561749300717374,561,1481561749298708112,,10.7901878357,-9.27070808411,-153.742660522,0.00364300003275,1.0,0.0,0.0,0.0,1.0,0.0,0.0,0.0,1.0,15.0609760284,-17.5000019073,9.26829242706,1.0,0.0,0.0,0.0,1.0,0.0,0.0,0.0,1.0,6.53617053223,-1.13963999023,14.5471692871,1.0,0.0,0.0,0.0,1.0,0.0,0.0,0.0,1.0
1481561749309659990,562,1481561749306961617,,10.3994369507,-9.20417499542,-153.497543335,0.00102500000503,1.0,0.0,0.0,0.0,1.0,0.0,0.0,0.0,1.0,-11.0365858078,6.7682929039,25.8536586761,1.0,0.0,0.0,0.0,1.0,0.0,0.0,0.0,1.0,5.66946953125,-1.21625444336,13.0819178711,1.0,0.0,0.0,0.0,1.0,0.0,0.0,0.0,1.0
1481561749320800565,563,1481561749318789533,,10.3324995041,-9.41052913666,-153.289978027,0.00425500003621,1.0,0.0,0.0,0.0,1.0,0.0,0.0,0.0,1.0,-27.7439041138,28.3536586761,17.6829280853,1.0,0.0,0.0,0.0,1.0,0.0,0.0,0.0,1.0,4.42927307129,-0.502782348633,11.4299187256,1.0,0.0,0.0,0.0,1.0,0.0,0.0,0.0,1.0
1481561749331120259,564,1481561749328894331,,10.5186414719,-9.71141052246,-153.199401855,0.00116400001571,1.0,0.0,0.0,0.0,1.0,0.0,0.0,0.0,1.0,-11.8292684555,28.6585388184,11.8902444839,1.0,0.0,0.0,0.0,1.0,0.0,0.0,0.0,1.0,-0.612915625,-3.12682736816,7.90565388184,1.0,0.0,0.0,0.0,1.0,0.0,0.0,0.0,1.0
1481561749342112554,565,1481561749340089594,,10.8259000778,-9.7793674469,-153.174850464,0.00515200011432,1.0,0.0,0.0,0.0,1.0,0.0,0.0,0.0,1.0,-4.81707286835,21.2804889679,1.8292683363,1.0,0.0,0.0,0.0,1.0,0.0,0.0,0.0,1.0,-2.95923325195,-0.110133276367,8.94473740234,1.0,0.0,0.0,0.0,1.0,0.0,0.0,0.0,1.0
1481561749359035395,566,1481561749351115587,,11.1088285446,-9.73957061768,-153.189468384,0.00113500002772,1.0,0.0,0.0,0.0,1.0,0.0,0.0,0.0,1.0,-2.13414645195,12.1341466904,-2.92682933807,1.0,0.0,0.0,0.0,1.0,0.0,0.0,0.0,1.0,-4.77882680593,0.191536132812,10.1609918457,1.0,0.0,0.0,0.0,1.0,0.0,0.0,0.0,1.0
1481561749364025946,567,1481561749362126527,,11.3055028915,-9.66926765442,-153.209213257,0.00111399998423,1.0,0.0,0.0,0.0,1.0,0.0,0.0,0.0,1.0,0.243902444839,-1.58536589146,-3.41463422775,1.0,0.0,0.0,0.0,1.0,0.0,0.0,0.0,1.0,-4.06535441895,0.60812722168,9.7587659668,1.0,0.0,0.0,0.0,1.0,0.0,0.0,0.0,1.0
1481561749378420986,568,1481561749372494554,,11.3982219696,-9.55472755432,-153.226760864,0.00107300002128,1.0,0.0,0.0,0.0,1.0,0.0,0.0,0.0,1.0,1.2804877758,-11.6463422775,-8.90243911743,1.0,0.0,0.0,0.0,1.0,0.0,0.0,0.0,1.0,-5.02303508301,-0.0335188255255,9.33259748677,1.0,0.0,0.0,0.0,1.0,0.0,0.0,0.0,1.0
1481561749385463350,569,1481561749382623571,,11.3635625839,-9.50249004364,-153.268615723,0.00104700005613,1.0,0.0,0.0,0.0,1.0,0.0,0.0,0.0,1.0,3.59756112099,-18.9634151459,-9.69512176514,1.0,0.0,0.0,0.0,1.0,0.0,0.0,0.0,1.0,-5.24809003906,-0.560243188477,9.22725319824,1.0,0.0,0.0,0.0,1.0,0.0,0.0,0.0,1.0
1481561749395554555,570,1481561749393087795,,11.255645752,-9.44372749329,-153.323455811,0.00108299998101,1.0,0.0,0.0,0.0,1.0,0.0,0.0,0.0,1.0,4.39024400711,-32.8048782349,-13.841463089,1.0,0.0,0.0,0.0,1.0,0.0,0.0,0.0,1.0,-5.28639726562,-0.234631762695,9.15542714844,1.0,0.0,0.0,0.0,1.0,0.0,0.0,0.0,1.0
1481561749405588208,571,1481561749403540197,,10.9677200317,-9.43233680725,-153.373428345,0.00103599997237,1.0,0.0,0.0,0.0,1.0,0.0,0.0,0.0,1.0,-0.0609756112099,-41.4024391174,-9.14634132385,1.0,0.0,0.0,0.0,1.0,0.0,0.0,0.0,1.0,-3.97916315918,-1.94409174805,10.2807019287,1.0,0.0,0.0,0.0,1.0,0.0,0.0,0.0,1.0
1481561749416335556,572,1481561749414071973,,10.565785408,-9.44310379028,-153.350112915,0.00115100003313,1.0,0.0,0.0,0.0,1.0,0.0,0.0,0.0,1.0,-1.09756100178,-41.5853652954,-3.7804877758,1.0,0.0,0.0,0.0,1.0,0.0,0.0,0.0,1.0,-1.98239897461,-1.66636435547,10.0508585693,1.0,0.0,0.0,0.0,1.0,0.0,0.0,0.0,1.0
1481561749427368320,573,1481561749425509057,,10.1809263229,-9.47535228729,-153.280776978,0.00148400000762,1.0,0.0,0.0,0.0,1.0,0.0,0.0,0.0,1.0,-1.15853655338,-41.2195129395,-1.09756100178,1.0,0.0,0.0,0.0,1.0,0.0,0.0,0.0,1.0,-3.54341845703,-1.74776721191,9.38048151997,1.0,0.0,0.0,0.0,1.0,0.0,0.0,0.0,1.0
1481561749440306595,574,1481561749436298593,,9.77882575989,-9.47646617889,-153.199325562,0.00116500002332,1.0,0.0,0.0,0.0,1.0,0.0,0.0,0.0,1.0,1.2195122242,-44.0853652954,1.8292683363,1.0,0.0,0.0,0.0,1.0,0.0,0.0,0.0,1.0,-1.36469494629,-0.928950244141,9.62947966167,1.0,0.0,0.0,0.0,1.0,0.0,0.0,0.0,1.0
1481561749448643694,575,1481561749446808962,,9.24869823456,-9.4498500824,-153.0728302,0.00101600005291,1.0,0.0,0.0,0.0,1.0,0.0,0.0,0.0,1.0,0.12195122242,-36.6463432312,6.52439069748,1.0,0.0,0.0,0.0,1.0,0.0,0.0,0.0,1.0,-0.0287304199219,-1.15879360352,9.96945571289,1.0,0.0,0.0,0.0,1.0,0.0,0.0,0.0,1.0
1481561749460531037,576,1481561749457999121,,8.75212001801,-9.38048553467,-152.92829895,0.00152900000103,1.0,0.0,0.0,0.0,1.0,0.0,0.0,0.0,1.0,1.2195122242,-31.0975627899,6.09756088257,1.0,0.0,0.0,0.0,1.0,0.0,0.0,0.0,1.0,2.1930887207,-0.938527050781,10.7499654541,1.0,0.0,0.0,0.0,1.0,0.0,0.0,0.0,1.0
1481561749470352555,577,1481561749467993764,,8.30765628815,-9.32320213318,-152.789901733,0.00102700002026,1.0,0.0,0.0,0.0,1.0,0.0,0.0,0.0,1.0,0.0,-18.3536586761,9.45121955872,1.0,0.0,0.0,0.0,1.0,0.0,0.0,0.0,1.0,2.83473476562,-0.344765039063,10.6972930176,1.0,0.0,0.0,0.0,1.0,0.0,0.0,0.0,1.0
1481561749480582249,578,1481561749478782778,,7.95505475998,-9.27935504913,-152.618148804,0.00119199999608,1.0,0.0,0.0,0.0,1.0,0.0,0.0,0.0,1.0,0.304878056049,2.92682933807,17.3780498505,1.0,0.0,0.0,0.0,1.0,0.0,0.0,0.0,1.0,4.95599743652,-1.16837033709,10.2567599121,1.0,0.0,0.0,0.0,1.0,0.0,0.0,0.0,1.0
1481561749491911626,579,1481561749489735854,,7.81528759003,-9.23806190491,-152.37890625,0.00106100004632,1.0,0.0,0.0,0.0,1.0,0.0,0.0,0.0,1.0,-2.07317066193,31.0975627899,26.2804889679,1.0,0.0,0.0,0.0,1.0,0.0,0.0,0.0,1.0,5.90410129395,-0.952892260742,10.8217915039,1.0,0.0,0.0,0.0,1.0,0.0,0.0,0.0,1.0
1481561749502431996,580,1481561749500644243,,8.00906944275,-9.23885917664,-152.133483887,0.00110600003973,1.0,0.0,0.0,0.0,1.0,0.0,0.0,0.0,1.0,-5.67073154449,51.7682952881,29.4512195587,1.0,0.0,0.0,0.0,1.0,0.0,0.0,0.0,1.0,3.27526787109,-1.24019645996,9.51455798198,1.0,0.0,0.0,0.0,1.0,0.0,0.0,0.0,1.0
1481561749512719762,581,1481561749510844198,,8.44311714172,-9.1641740799,-151.967849731,0.00100899999961,1.0,0.0,0.0,0.0,1.0,0.0,0.0,0.0,1.0,-8.10975551605,55.182926178,15.1829271317,1.0,0.0,0.0,0.0,1.0,0.0,0.0,0.0,1.0,0.565031591797,1.21625444336,9.90241806641,1.0,0.0,0.0,0.0,1.0,0.0,0.0,0.0,1.0
1481561749523536485,582,1481561749521950086,,9.01598262787,-9.15830516815,-151.974502563,0.00110700004734,1.0,0.0,0.0,0.0,1.0,0.0,0.0,0.0,1.0,-9.39024448395,39.390247345,-0.365853667259,1.0,0.0,0.0,0.0,1.0,0.0,0.0,0.0,1.0,-1.88184250488,0.579396801758,8.00621035156,1.0,0.0,0.0,0.0,1.0,0.0,0.0,0.0,1.0
1481561749534607165,583,1481561749532764882,,9.375041008,-9.13253498077,-152.027069092,0.00116999994498,1.0,0.0,0.0,0.0,1.0,0.0,0.0,0.0,1.0,-1.95121955872,34.3292694092,-3.84146332741,1.0,0.0,0.0,0.0,1.0,0.0,0.0,0.0,1.0,-2.26970317383,0.46447512207,8.5520889146,1.0,0.0,0.0,0.0,1.0,0.0,0.0,0.0,1.0
1481561749546881798,584,1481561749544513110,,9.82373809814,-9.14013671875,-152.145462036,0.00176799995825,1.0,0.0,0.0,0.0,1.0,0.0,0.0,0.0,1.0,-1.2195122242,27.3780498505,-8.78048801422,1.0,0.0,0.0,0.0,1.0,0.0,0.0,0.0,1.0,-3.43328518066,-0.579396801758,9.50498117534,1.0,0.0,0.0,0.0,1.0,0.0,0.0,0.0,1.0
1481561749557264616,585,1481561749554746971,,10.1563844681,-9.11303520203,-152.269927979,0.00112100003753,1.0,0.0,0.0,0.0,1.0,0.0,0.0,0.0,1.0,-0.731707334518,11.0365858078,-13.2317075729,1.0,0.0,0.0,0.0,1.0,0.0,0.0,0.0,1.0,-5.63116230469,-0.225054956055,10.0987426025,1.0,0.0,0.0,0.0,1.0,0.0,0.0,0.0,1.0
1481561749567294311,586,1481561749564786874,,10.3586988449,-9.13028907776,-152.436264038,0.00101999996696,1.0,0.0,0.0,0.0,1.0,0.0,0.0,0.0,1.0,-3.71951246262,-2.31707310677,-18.7804889679,1.0,0.0,0.0,0.0,1.0,0.0,0.0,0.0,1.0,-6.0812722168,-0.837970581055,10.2711251221,1.0,0.0,0.0,0.0,1.0,0.0,0.0,0.0,1.0
1481561749580075400,587,1481561749575859585,,10.4525032043,-9.17979431152,-152.619003296,0.00112399994396,1.0,0.0,0.0,0.0,1.0,0.0,0.0,0.0,1.0,-1.8292683363,-20.3048782349,-21.158536911,1.0,0.0,0.0,0.0,1.0,0.0,0.0,0.0,1.0,-6.53617053223,-1.16358193377,9.15063874512,1.0,0.0,0.0,0.0,1.0,0.0,0.0,0.0,1.0
1481561749588832132,588,1481561749586792974,,10.309876442,-9.21124744415,-152.773971558,0.000974000024144,1.0,0.0,0.0,0.0,1.0,0.0,0.0,0.0,1.0,0.609756112099,-26.158536911,-14.9390249252,1.0,0.0,0.0,0.0,1.0,0.0,0.0,0.0,1.0,-2.07816689489,-1.54186586914,10.3046439453,1.0,0.0,0.0,0.0,1.0,0.0,0.0,0.0,1.0
1481561749601168535,589,1481561749597992195,,10.0110731125,-9.21363162994,-152.809188843,0.00126199994702,1.0,0.0,0.0,0.0,1.0,0.0,0.0,0.0,1.0,3.17073178291,-10.9756097794,-2.13414645195,1.0,0.0,0.0,0.0,1.0,0.0,0.0,0.0,1.0,2.41335541957,-1.99197578125,10.4482960449,1.0,0.0,0.0,0.0,1.0,0.0,0.0,0.0,1.0
1481561749609757507,590,1481561749608128973,,9.83042526245,-9.17874908447,-152.697967529,0.000988999963738,1.0,0.0,0.0,0.0,1.0,0.0,0.0,0.0,1.0,-0.487804889679,9.51219558716,14.9390249252,1.0,0.0,0.0,0.0,1.0,0.0,0.0,0.0,1.0,2.22660754395,-1.2737152832,11.166556543,1.0,0.0,0.0,0.0,1.0,0.0,0.0,0.0,1.0
1481561749622344170,591,1481561749618683301,,9.77305030823,-9.19889354706,-152.518508911,0.00117199996021,1.0,0.0,0.0,0.0,1.0,0.0,0.0,0.0,1.0,-5.60975599289,30.9146327972,22.1951236725,1.0,0.0,0.0,0.0,1.0,0.0,0.0,0.0,1.0,3.90254870605,-0.833182177734,9.7827079834,1.0,0.0,0.0,0.0,1.0,0.0,0.0,0.0,1.0
1481561749631410223,592,1481561749629595440,,9.99931812286,-9.28409957886,-152.405090332,0.00101799995173,1.0,0.0,0.0,0.0,1.0,0.0,0.0,0.0,1.0,-8.41463470459,32.4390220642,11.4024391174,1.0,0.0,0.0,0.0,1.0,0.0,0.0,0.0,1.0,-0.61770402832,-1.61369191895,9.2176763916,1.0,0.0,0.0,0.0,1.0,0.0,0.0,0.0,1.0
1481561749641812521,593,1481561749639974612,,10.2933387756,-9.38401889801,-152.417053223,0.00107500003651,1.0,0.0,0.0,0.0,1.0,0.0,0.0,0.0,1.0,-6.34146356583,18.1707305908,-4.93902444839,1.0,0.0,0.0,0.0,1.0,0.0,0.0,0.0,1.0,-2.72460148926,-1.16837033709,9.03571706543,1.0,0.0,0.0,0.0,1.0,0.0,0.0,0.0,1.0
1481561749653247730,594,1481561749650825085,,10.5625305176,-9.46564102173,-152.534622192,0.00109000003431,1.0,0.0,0.0,0.0,1.0,0.0,0.0,0.0,1.0,-1.70731711388,1.95121955872,-13.4146347046,1.0,0.0,0.0,0.0,1.0,0.0,0.0,0.0,1.0,-5.29597407227,-1.01035310059,9.23204160156,1.0,0.0,0.0,0.0,1.0,0.0,0.0,0.0,1.0
1481561749664917834,595,1481561749661189830,,10.6778802872,-9.47637844086,-152.651657104,0.00122800003737,1.0,0.0,0.0,0.0,1.0,0.0,0.0,0.0,1.0,-0.18292683363,-7.13414621353,-16.8292694092,1.0,0.0,0.0,0.0,1.0,0.0,0.0,0.0,1.0,-7.39329472656,-0.885854614258,10.0748005859,1.0,0.0,0.0,0.0,1.0,0.0,0.0,0.0,1.0
1481561749673593160,596,1481561749671870616,,10.6532964706,-9.4172668457,-152.753768921,0.00097499997355,1.0,0.0,0.0,0.0,1.0,0.0,0.0,0.0,1.0,-0.0609756112099,-12.3780488968,-9.14634132385,1.0,0.0,0.0,0.0,1.0,0.0,0.0,0.0,1.0,-3.55299526367,0.148440512063,11.01811604,1.0,0.0,0.0,0.0,1.0,0.0,0.0,0.0,1.0
